{
	"data": 
	[	{"name": "Admin Block",
		"address": "Yamnampet, Hyderabad,Telangana",
		"image_src": ["adminblock"],
		"lat": 17.4547011,
		"long": 78.6664140,
		"popularity": 5,
		"description": " Place of Administration where the fee payment happens"},

		{"name": "Block 1(EEE)",
		"address": "Yamnampet, Hyderabad,Telangana",
		"image_src": ["block1"],
		"lat": 17.4558442,
		"long": 78.6660415,
		"popularity": 5,
		"description": "The Block of EEE"},

		{"name": "Block 2(CSE)",
		"address": "Yamnampet, Hyderabad,Telangana",
		"image_src": ["block2"],
		"lat": 17.4556626,
		"long": 78.66714252,
		"popularity": 4.8,
		"description": "The Block of CSE"},

		{"name": "Vaughn Block",
		"address": "Yamnampet, Hyderabad,Telangana",
		"image_src": ["vaughblock"],
		"lat": 17.4554815,
		"long": 78.6674547,
		"popularity": 4.5,
		"description": "The Block of First year's "},

		{"name": "Titanic Block",
		"address": "Yamnampet, Hyderabad,Telangana",
		"image_src": ["biotechblock"],
		"lat": 17.4551636,
		"long": 78.6673119,
		"popularity": 4.4,
		"description": "This is for biotech people "},

		{"name": "Canteen",
		"address": "Yamnampet, Hyderabad,Telangana",
		"image_src": ["canteen"],
		"lat": 17.4540822,
		"long": 78.6654373,
		"popularity": 4.3,
		"description": "Place of food"},

		{"name": "Cafeteria",
		"address": "Yamnampet, Hyderabad,Telangana",
		"image_src": ["cafeteria"],
		"lat": 17.4565910,
		"long": 78.6674862,
		"popularity": 3.9,
		"description": "Place of snacks"},

		{"name": "Library Block",
		"address": "Yamnampet, Hyderabad,Telangana",
		"image_src": ["libraryblock"],
		"lat": 17.4562994,
		"long": 78.6666403,
		"popularity": 3.5,
		"description": "Place of Books"},

		{"name": "Parking",
		"address": "Yamnampet, Hyderabad,Telangana",
		"image_src": ["parkingstud"],
		"lat": 17.454013,
		"long": 78.665027,
		"popularity": 3.2,
		"description": "Place of Parking"},

		{"name": "First Guide",
		"address": "Yamnampet, Hyderabad,Telangana",
		"image_src": ["firstguide"],
		"lat": 17.454843,
		"long": 78.666390,
		"popularity": 3.0,
		"description": "Go 500 meters ahead"},

		{"name": "Health and busses",
		"address": "Yamnampet, Hyderabad,Telangana",
		"image_src": ["healthandcare"],
		"lat": 17.455238,
		"long": 78.666845,
		"popularity": 2.8,
		"description": "Places where bus stop"},

		{"name": "New Block",
		"address": "Yamnampet, Hyderabad,Telangana",
		"image_src": ["icon_location"],
		"lat": 17.457341,
		"long": 78.667818,
		"popularity": 2.4,
		"description": "Newly constructed"},

		{"name": "Quadrangle Entry",
		"address": "Yamnampet, Hyderabad,Telangana",
		"image_src": ["quandrangle"],
		"lat": 17.4547019,
		"long": 78.6664148,
		"popularity": 2,
		"description": "Central Place"}
	]
}